{"id": 141, "name": "三元里平英团遗址", "location": "广东省广州市", "era": "近代", "type": "革命遗址", "protectionLevel": "省级文物保护单位", "description": "三元里平英团遗址是抗击外敌的重要历史遗址，见证了广州市民的爱国精神。", "coordinates": {"latitude": 23.1718, "longitude": 113.2518}}
{"id": 142, "name": "黄花岗七十二烈士墓", "location": "广东省广州市", "era": "近代", "type": "纪念地", "protectionLevel": "全国重点文物保护单位", "description": "黄花岗七十二烈士墓是纪念辛亥革命烈士的重要场所，具有深刻的历史意义。", "coordinates": {"latitude": 23.1397, "longitude": 113.2714}}
{"id": 143, "name": "广州农民运动讲习所旧址", "location": "广东省广州市", "era": "近代", "type": "革命遗址", "protectionLevel": "省级文物保护单位", "description": "广州农民运动讲习所旧址是中国农民运动的重要发源地，具有重要的历史价值。", "coordinates": {"latitude": 23.1248, "longitude": 113.2644}}
{"id": 144, "name": "广州公社旧址", "location": "广东省广州市", "era": "近代", "type": "革命遗址", "protectionLevel": "省级文物保护单位", "description": "广州公社旧址是广州地区重要的革命历史遗址，见证了广州的革命斗争。", "coordinates": {"latitude": 23.1259, "longitude": 113.2465}}
{"id": 145, "name": "光孝寺", "location": "广东省广州市", "era": "唐代", "type": "古建筑", "protectionLevel": "全国重点文物保护单位", "description": "光孝寺是广州市著名的佛教寺庙，具有悠久的历史和丰富的文化内涵。", "coordinates": {"latitude": 23.1358, "longitude": 113.2576}}
{"id": 147, "name": "黄埔军校旧址", "location": "广东省广州市", "era": "近代", "type": "军事遗址", "protectionLevel": "全国重点文物保护单位", "description": "黄埔军校旧址是中国近代军事教育的重要基地，培养了大量军事人才。", "coordinates": {"latitude": 23.1116, "longitude": 113.4283}}
{"id": 148, "name": "中华全国总工会旧址", "location": "广东省广州市", "era": "近代", "type": "革命遗址", "protectionLevel": "省级文物保护单位", "description": "中华全国总工会旧址是工人运动的重要历史遗址，见证了工人阶级的斗争历程。", "coordinates": {"latitude": 23.1245, "longitude": 113.2491}}
{"id": 149, "name": "陈家祠堂", "location": "广东省广州市", "era": "清代", "type": "古建筑", "protectionLevel": "全国重点文物保护单位", "description": "陈家祠堂是典型的岭南建筑，保存了大量精美的雕刻和装饰。", "coordinates": {"latitude": 23.1456, "longitude": 113.2582}}
{"id": 150, "name": "秦代造船遗址、南越国宫署遗址及南越文王墓", "location": "广东省广州市", "era": "秦代", "type": "古文化遗址", "protectionLevel": "全国重点文物保护单位", "description": "该遗址是研究秦代和南越国历史的重要实物资料，出土了大量文物。", "coordinates": {"latitude": 23.1375, "longitude": 113.2569}}
{"id": 151, "name": "怀圣寺光塔", "location": "广东省广州市", "era": "唐代", "type": "古建筑", "protectionLevel": "省级文物保护单位", "description": "怀圣寺光塔是唐代建筑，具有重要的历史和文化价值。", "coordinates": {"latitude": 23.1242, "longitude": 113.2634}}
{"id": 152, "name": "广州沙面建筑群", "location": "广东省广州市", "era": "近代", "type": "建筑群", "protectionLevel": "省级文物保护单位", "description": "广州沙面建筑群是保存较为完整的近代建筑群，具有重要的历史和文化价值。", "coordinates": {"latitude": 23.1076, "longitude": 113.2439}}
{"id": 153, "name": "广州圣心大教堂", "location": "广东省广州市", "era": "近代", "type": "宗教建筑", "protectionLevel": "全国重点文物保护单位", "description": "广州圣心大教堂是著名的哥特式建筑，具有重要的历史和文化价值。", "coordinates": {"latitude": 23.1293, "longitude": 113.2543}}
{"id": 154, "name": "广州大元帅府旧址", "location": "广东省广州市", "era": "近代", "type": "历史建筑", "protectionLevel": "省级文物保护单位", "description": "广州大元帅府旧址是重要的历史建筑，见证了广州的历史变迁。", "coordinates": {"latitude": 23.1127, "longitude": 113.2445}}
{"id": 155, "name": "莲花山古采石场", "location": "广东省广州市", "era": "古代", "type": "古文化遗址", "protectionLevel": "省级文物保护单位", "description": "莲花山古采石场是古代采石的重要遗址，具有重要的历史和文化价值。", "coordinates": {"latitude": 23.2947, "longitude": 113.3583}}
{"id": 156, "name": "中山纪念堂", "location": "广东省广州市", "era": "近代", "type": "纪念建筑", "protectionLevel": "全国重点文物保护单位", "description": "中山纪念堂是纪念孙中山的重要建筑，具有重要的历史和文化意义。", "coordinates": {"latitude": 23.1354, "longitude": 113.2644}}
{"id": 157, "name": "余荫山房", "location": "广东省广州市", "era": "清代", "type": "古建筑", "protectionLevel": "省级文物保护单位", "description": "余荫山房是清代著名的园林建筑，保存了丰富的文化遗产。", "coordinates": {"latitude": 23.1258, "longitude": 113.2498}}