{"id": 106, "name": "陵水桥山遗址", "location": "海南省陵水县", "era": "新石器时代", "type": "古文化遗址", "protectionLevel": "省级文物保护单位", "description": "陵水桥山遗址是新石器时代的重要考古遗址，出土了大量的石器和陶器，反映了当时人类的生活方式。", "coordinates": {"latitude": 18.5000, "longitude": 110.0000}}
{"id": 107, "name": "三沙金银岛沉船遗址", "location": "海南省三沙市", "era": "近代", "type": "沉船遗址", "protectionLevel": "省级文物保护单位", "description": "三沙金银岛沉船遗址是研究海上丝绸之路的重要实物资料，出土了大量文物。", "coordinates": {"latitude": 16.0000, "longitude": 112.0000}}
{"id": 108, "name": "三沙珊瑚岛沉船遗址", "location": "海南省三沙市", "era": "近代", "type": "沉船遗址", "protectionLevel": "省级文物保护单位", "description": "三沙珊瑚岛沉船遗址是重要的海洋考古遗址，提供了丰富的历史信息。", "coordinates": {"latitude": 16.5000, "longitude": 112.5000}}
{"id": 109, "name": "定安故城遗址", "location": "海南省定安县", "era": "明清", "type": "古城遗址", "protectionLevel": "省级文物保护单位", "description": "定安故城遗址是明清时期的重要城址，保存了城墙和部分建筑遗迹。", "coordinates": {"latitude": 19.2000, "longitude": 110.3000}}
{"id": 110, "name": "澄迈石矍村冯氏祠堂", "location": "海南省澄迈县", "era": "清代", "type": "古建筑", "protectionLevel": "省级文物保护单位", "description": "澄迈石矍村冯氏祠堂是清代重要的家族祠堂，具有较高的历史和文化价值。", "coordinates": {"latitude": 19.5000, "longitude": 110.5000}}
{"id": 111, "name": "海口琼山侯家大院", "location": "海南省海口市", "era": "清代", "type": "古建筑", "protectionLevel": "省级文物保护单位", "description": "海口琼山侯家大院是清代著名的家族建筑，保存完好，具有重要的历史价值。", "coordinates": {"latitude": 20.0000, "longitude": 110.3000}}
{"id": 112, "name": "文昌溪北书院", "location": "海南省文昌市", "era": "明清", "type": "古建筑", "protectionLevel": "省级文物保护单位", "description": "文昌溪北书院是明清时期的重要书院，培养了大量人才。", "coordinates": {"latitude": 19.5000, "longitude": 110.8000}}
{"id": 113, "name": "文昌符家宅", "location": "海南省文昌市", "era": "清代", "type": "古建筑", "protectionLevel": "省级文物保护单位", "description": "文昌符家宅是清代重要的家族住宅，具有较高的历史和文化价值。", "coordinates": {"latitude": 19.5000, "longitude": 110.8000}}
{"id": 114, "name": "琼崖工农红军云龙改编旧址", "location": "海南省琼海市", "era": "近代", "type": "革命遗址", "protectionLevel": "省级文物保护单位", "description": "琼崖工农红军云龙改编旧址是重要的革命历史遗址，见证了琼崖革命斗争的历史。", "coordinates": {"latitude": 19.2000, "longitude": 110.4000}}
{"id": 115, "name": "侵华日军侵琼八所死难劳工纪念地", "location": "海南省海口市", "era": "近代", "type": "纪念地", "protectionLevel": "省级文物保护单位", "description": "侵华日军侵琼八所死难劳工纪念地是缅怀历史的重要场所，具有深刻的历史意义。", "coordinates": {"latitude": 20.0000, "longitude": 110.3000}}
{"id": 116, "name": "海口琼山区严塘陂、亭塘陂水利工程", "location": "海南省海口市", "era": "近代", "type": "水利工程", "protectionLevel": "省级文物保护单位", "description": "海口琼山区严塘陂、亭塘陂水利工程是重要的水利设施，见证了海南的水利发展历史。", "coordinates": {"latitude": 20.0000, "longitude": 110.3000}}