{"id": 191, "name": "丸都山城与国内城", "location": "吉林省延边朝鲜族自治州", "era": "古代", "type": "古城遗址", "protectionLevel": "省级文物保护单位", "description": "丸都山城与国内城是古代重要的军事防御工事，具有重要的历史和文化价值。", "coordinates": {"latitude": 42.0000, "longitude": 129.0000}}
{"id": 192, "name": "汉书遗址", "location": "吉林省长春市", "era": "汉代", "type": "古文化遗址", "protectionLevel": "全国重点文物保护单位", "description": "汉书遗址是研究汉代历史的重要遗址，出土了大量文物，具有重要的考古价值。", "coordinates": {"latitude": 43.9000, "longitude": 125.3000}}
{"id": 193, "name": "西团山遗址", "location": "吉林省吉林市", "era": "新石器时代", "type": "古文化遗址", "protectionLevel": "省级文物保护单位", "description": "西团山遗址是新石器时代的重要考古遗址，出土了大量的石器和陶器，反映了当时人类的生活方式。", "coordinates": {"latitude": 43.8000, "longitude": 126.6000}}
{"id": 194, "name": "万发拨子遗址", "location": "吉林省白城市", "era": "新石器时代", "type": "古文化遗址", "protectionLevel": "省级文物保护单位", "description": "万发拨子遗址是新石器时代晚期的重要遗址，出土了大量的石器和陶器，具有重要的考古价值。", "coordinates": {"latitude": 45.0000, "longitude": 122.8000}}
{"id": 195, "name": "二龙湖战国古城", "location": "吉林省通化市", "era": "战国", "type": "古城遗址", "protectionLevel": "省级文物保护单位", "description": "二龙湖战国古城是战国时期的重要防御工事，具有重要的历史和文化价值。", "coordinates": {"latitude": 41.5000, "longitude": 126.0000}}
{"id": 196, "name": "八连城遗址", "location": "吉林省延边朝鲜族自治州", "era": "古代", "type": "古城遗址", "protectionLevel": "省级文物保护单位", "description": "八连城遗址是古代重要的军事防御工事，具有重要的历史和文化价值。", "coordinates": {"latitude": 42.2000, "longitude": 129.5000}}
{"id": 197, "name": "宝山 - 六道沟冶铜遗址", "location": "吉林省白山市", "era": "古代", "type": "冶炼遗址", "protectionLevel": "省级文物保护单位", "description": "宝山 - 六道沟冶铜遗址是古代冶铜的重要遗址，具有重要的历史和文化价值。", "coordinates": {"latitude": 41.8000, "longitude": 126.5000}}
{"id": 198, "name": "城山子山城", "location": "吉林省延边朝鲜族自治州", "era": "古代", "type": "古城遗址", "protectionLevel": "省级文物保护单位", "description": "城山子山城是古代重要的军事防御工事，具有重要的历史和文化价值。", "coordinates": {"latitude": 42.3000, "longitude": 129.2000}}
{"id": 199, "name": "苏密城", "location": "吉林省延边朝鲜族自治州", "era": "古代", "type": "古城遗址", "protectionLevel": "省级文物保护单位", "description": "苏密城是古代重要的军事防御工事，具有重要的历史和文化价值。", "coordinates": {"latitude": 42.4000, "longitude": 129.3000}}
{"id": 200, "name": "磨盘村山城", "location": "吉林省白城市", "era": "古代", "type": "古城遗址", "protectionLevel": "省级文物保护单位", "description": "磨盘村山城是古代重要的军事防御工事，具有重要的历史和文化价值。", "coordinates": {"latitude": 45.2000, "longitude": 122.5000}}
{"id": 201, "name": "城四家子城址", "location": "吉林省通化市", "era": "古代", "type": "古城遗址", "protectionLevel": "省级文物保护单位", "description": "城四家子城址是古代重要的军事防御工事，具有重要的历史和文化价值。", "coordinates": {"latitude": 41.8000, "longitude": 126.5000}}
{"id": 202, "name": "辉发城址", "location": "吉林省延边朝鲜族自治州", "era": "古代", "type": "古城遗址", "protectionLevel": "省级文物保护单位", "description": "辉发城址是古代重要的军事防御工事，具有重要的历史和文化价值。", "coordinates": {"latitude": 42.5000, "longitude": 129.0000}}
{"id": 203, "name": "龙潭山城", "location": "吉林省白城市", "era": "古代", "type": "古城遗址", "protectionLevel": "省级文物保护单位", "description": "龙潭山城是古代重要的军事防御工事，具有重要的历史和文化价值。", "coordinates": {"latitude": 45.3000, "longitude": 122.8000}}
{"id": 204, "name": "和龙大洞遗址", "location": "吉林省延边朝鲜族自治州", "era": "史前", "type": "古文化遗址", "protectionLevel": "省级文物保护单位", "description": "和龙大洞遗址是重要的史前文化遗址，出土了大量文物，反映了古代人类的生活和信仰。", "coordinates": {"latitude": 42.8000, "longitude": 129.5000}}
{"id": 205, "name": "后套木嘎遗址", "location": "吉林省白城市", "era": "史前", "type": "古文化遗址", "protectionLevel": "省级文物保护单位", "description": "后套木嘎遗址是重要的史前文化遗址，出土了大量文物，反映了古代人类的生活和信仰。", "coordinates": {"latitude": 45.5000, "longitude": 123.0000}}
{"id": 206, "name": "农安五台山遗址", "location": "吉林省长春市", "era": "古代", "type": "古文化遗址", "protectionLevel": "省级文物保护单位", "description": "农安五台山遗址是古代重要的文化遗址，具有重要的历史和文化价值。", "coordinates": {"latitude": 43.8000, "longitude": 125.0000}}
{"id": 207, "name": "大海猛遗址", "location": "吉林省白城市", "era": "史前", "type": "古文化遗址", "protectionLevel": "省级文物保护单位", "description": "大海猛遗址是重要的史前文化遗址，出土了大量文物，反映了古代人类的生活和信仰。", "coordinates": {"latitude": 45.6000, "longitude": 123.5000}}
{"id": 208, "name": "东团山遗址", "location": "吉林省通化市", "era": "古代", "type": "古文化遗址", "protectionLevel": "省级文物保护单位", "description": "东团山遗址是古代重要的文化遗址，具有重要的历史和文化价值。", "coordinates": {"latitude": 41.6000, "longitude": 126.0000}}
{"id": 209, "name": "长白山神庙遗址", "location": "吉林省白山市", "era": "古代", "type": "古文化遗址", "protectionLevel": "省级文物保护单位", "description": "长白山神庙遗址是古代重要的宗教遗址，具有重要的历史和文化价值。", "coordinates": {"latitude": 41.8000, "longitude": 128.0000}}
{"id": 210, "name": "霸王朝山城遗址", "location": "吉林省延边朝鲜族自治州", "era": "古代", "type": "古城遗址", "protectionLevel": "省级文物保护单位", "description": "霸王朝山城遗址是古代重要的军事防御工事，具有重要的历史和文化价值。", "coordinates": {"latitude": 42.5000, "longitude": 129.2000}}
{"id": 211, "name": "洞沟古墓群", "location": "吉林省白城市", "era": "古代", "type": "古墓遗址", "protectionLevel": "省级文物保护单位", "description": "洞沟古墓群是古代重要的墓葬群，出土了大量文物，反映了古代人类的生活和信仰。", "coordinates": {"latitude": 45.3000, "longitude": 123.5000}}
{"id": 212, "name": "六顶山古墓群", "location": "吉林省通化市", "era": "古代", "type": "古墓遗址", "protectionLevel": "省级文物保护单位", "description": "六顶山古墓群是古代重要的墓葬群，具有重要的历史和文化价值。", "coordinates": {"latitude": 41.8000, "longitude": 126.5000}}
{"id": 213, "name": "龙头山古墓群", "location": "吉林省延边朝鲜族自治州", "era": "古代", "type": "古墓遗址", "protectionLevel": "省级文物保护单位", "description": "龙头山古墓群是古代重要的墓葬群，出土了大量文物，反映了古代人类的生活和信仰。", "coordinates": {"latitude": 42.5000, "longitude": 129.2000}}
{"id": 214, "name": "帽儿山墓地", "location": "吉林省白山市", "era": "古代", "type": "古墓遗址", "protectionLevel": "省级文物保护单位", "description": "帽儿山墓地是古代重要的墓葬群，具有重要的历史和文化价值。", "coordinates": {"latitude": 41.8000, "longitude": 126.8000}}
{"id": 215, "name": "干沟子墓群", "location": "吉林省通化市", "era": "古代", "type": "古墓遗址", "protectionLevel": "省级文物保护单位", "description": "干沟子墓群是古代重要的墓葬群，出土了大量文物，反映了古代人类的生活和信仰。", "coordinates": {"latitude": 41.6000, "longitude": 126.0000}}
{"id": 216, "name": "完颜希尹家族墓地", "location": "吉林省延边朝鲜族自治州", "era": "金代", "type": "古墓遗址", "protectionLevel": "省级文物保护单位", "description": "完颜希尹家族墓地是金代重要的贵族墓地，具有重要的历史和文化价值。", "coordinates": {"latitude": 42.4000, "longitude": 129.3000}}
{"id": 217, "name": "辉发河上游石棚墓群", "location": "吉林省白城市", "era": "古代", "type": "古墓遗址", "protectionLevel": "省级文物保护单位", "description": "辉发河上游石棚墓群是古代重要的墓葬群，出土了大量文物，反映了古代人类的生活和信仰。", "coordinates": {"latitude": 45.6000, "longitude": 123.8000}}
{"id": 218, "name": "长白灵光塔", "location": "吉林省白山市", "era": "清代", "type": "古建筑", "protectionLevel": "全国重点文物保护单位", "description": "长白灵光塔是清代重要的佛教建筑，具有较高的历史和文化价值。", "coordinates": {"latitude": 41.5000, "longitude": 128.0000}}
{"id": 219, "name": "吉林文庙", "location": "吉林省吉林市", "era": "清代", "type": "古建筑", "protectionLevel": "全国重点文物保护单位", "description": "吉林文庙是纪念孔子的庙宇，具有重要的历史和文化意义。", "coordinates": {"latitude": 43.9000, "longitude": 126.5500}}
{"id": 220, "name": "长城", "location": "吉林省延边朝鲜族自治州", "era": "明代", "type": "古城遗址", "protectionLevel": "全国重点文物保护单位", "description": "长城是中国古代重要的防御工事，具有重要的历史和文化价值。", "coordinates": {"latitude": 42.0000, "longitude": 129.0000}}
{"id": 221, "name": "大金得胜陀颂碑", "location": "吉林省通化市", "era": "金代", "type": "碑刻", "protectionLevel": "省级文物保护单位", "description": "大金得胜陀颂碑是金代重要的历史碑刻，具有重要的历史和文化价值。", "coordinates": {"latitude": 41.5000, "longitude": 126.0000}}
{"id": 222, "name": "阿什哈达摩崖", "location": "吉林省白城市", "era": "史前", "type": "岩画遗址", "protectionLevel": "省级文物保护单位", "description": "阿什哈达摩崖是重要的史前文化遗址，保存了大量的岩画，反映了古代人类的生活和信仰。", "coordinates": {"latitude": 45.3000, "longitude": 123.5000}}
{"id": 223, "name": "四保临江指挥部旧址", "location": "吉林省延边朝鲜族自治州", "era": "近代", "type": "革命遗址", "protectionLevel": "省级文物保护单位", "description": "四保临江指挥部旧址是抗日战争时期的重要指挥部，具有重要的历史价值。", "coordinates": {"latitude": 42.5000, "longitude": 129.2000}}
{"id": 224, "name": "中东铁路扩展项目历史建筑", "location": "吉林省长春市", "era": "近代", "type": "历史建筑", "protectionLevel": "省级文物保护单位", "description": "中东铁路扩展项目历史建筑是近代铁路建设的重要遗址，具有重要的历史和文化价值。", "coordinates": {"latitude": 43.9000, "longitude": 125.3000}}
{"id": 225, "name": "伪满皇宫及日伪军政机构旧址", "location": "吉林省长春市", "era": "近代", "type": "历史建筑", "protectionLevel": "全国重点文物保护单位", "description": "伪满皇宫及日伪军政机构旧址是伪满洲国时期的重要历史遗址，见证了这一段历史。", "coordinates": {"latitude": 43.9000, "longitude": 125.3000}}
{"id": 226, "name": "伪满洲国中央银行旧址", "location": "吉林省长春市", "era": "近代", "type": "历史建筑", "protectionLevel": "省级文物保护单位", "description": "伪满洲国中央银行旧址是伪满洲国时期的重要金融机构，具有重要的历史价值。", "coordinates": {"latitude": 43.9000, "longitude": 125.3000}}
{"id": 227, "name": "长春电影制片厂早期建筑", "location": "吉林省长春市", "era": "近代", "type": "历史建筑", "protectionLevel": "省级文物保护单位", "description": "长春电影制片厂早期建筑是中国电影工业的重要遗址，具有重要的历史和文化价值。", "coordinates": {"latitude": 43.9000, "longitude": 125.3000}}
{"id": 228, "name": "吉林机器局旧址", "location": "吉林省长春市", "era": "近代", "type": "历史建筑", "protectionLevel": "省级文物保护单位", "description": "吉林机器局旧址是近代重要的工业遗址，见证了吉林的工业发展历程。", "coordinates": {"latitude": 43.9000, "longitude": 125.3000}}
{"id": 229, "name": "红石砬子抗日根据地遗址", "location": "吉林省白城市", "era": "近代", "type": "革命遗址", "protectionLevel": "省级文物保护单位", "description": "红石砬子抗日根据地遗址是抗日战争时期的重要根据地，具有重要的历史价值。", "coordinates": {"latitude": 45.3000, "longitude": 123.5000}}
{"id": 230, "name": "老黑沟惨案遗址", "location": "吉林省通化市", "era": "近代", "type": "革命遗址", "protectionLevel": "省级文物保护单位", "description": "老黑沟惨案遗址是抗日战争时期的重要历史遗址，见证了惨痛的历史。", "coordinates": {"latitude": 41.8000, "longitude": 126.0000}}
{"id": 231, "name": "丰满万人坑遗址", "location": "吉林省吉林市", "era": "近代", "type": "革命遗址", "protectionLevel": "省级文物保护单位", "description": "丰满万人坑遗址是抗日战争时期的重要历史遗址，见证了惨痛的历史。", "coordinates": {"latitude": 43.9000, "longitude": 126.5500}}
{"id": 232, "name": "中俄边界清勘界碑（土字牌）", "location": "吉林省延边朝鲜族自治州", "era": "近代", "type": "历史遗址", "protectionLevel": "省级文物保护单位", "description": "中俄边界清勘界碑是中俄边界划定的重要历史遗址，具有重要的历史和文化价值。", "coordinates": {"latitude": 42.5000, "longitude": 129.2000}}
{"id": 233, "name": "侵华日军第 100 部队遗址", "location": "吉林省长春市", "era": "近代", "type": "革命遗址", "protectionLevel": "省级文物保护单位", "description": "侵华日军第 100 部队遗址是抗日战争时期的重要历史遗址，见证了这一段历史。", "coordinates": {"latitude": 43.9000, "longitude": 125.3000}}
{"id": 234, "name": "石人血泪山死难矿工纪念地", "location": "吉林省白城市", "era": "近代", "type": "纪念地", "protectionLevel": "省级文物保护单位", "description": "石人血泪山死难矿工纪念地是纪念矿工死难者的重要场所，具有深刻的历史意义。", "coordinates": {"latitude": 45.3000, "longitude": 123.5000}}
{"id": 235, "name": "七道沟死难同胞纪念地", "location": "吉林省通化市", "era": "近代", "type": "纪念地", "protectionLevel": "省级文物保护单位", "description": "七道沟死难同胞纪念地是纪念抗日战争中死难者的重要场所，具有深刻的历史意义。", "coordinates": {"latitude": 41.8000, "longitude": 126.0000}}
{"id": 236, "name": "伪满建国忠灵庙旧址", "location": "吉林省长春市", "era": "近代", "type": "历史建筑", "protectionLevel": "省级文物保护单位", "description": "伪满建国忠灵庙旧址是伪满洲国时期的重要历史遗址，见证了这一段历史。", "coordinates": {"latitude": 43.9000, "longitude": 125.3000}}
{"id": 237, "name": "辽源二战盟军战俘营旧址", "location": "吉林省辽源市", "era": "近代", "type": "历史遗址", "protectionLevel": "省级文物保护单位", "description": "辽源二战盟军战俘营旧址是二战时期的重要历史遗址，见证了这一段历史。", "coordinates": {"latitude": 42.8000, "longitude": 126.0000}}
{"id": 238, "name": "中共中央东北局梅河口会议会址", "location": "吉林省梅河口市", "era": "近代", "type": "革命遗址", "protectionLevel": "省级文物保护单位", "description": "中共中央东北局梅河口会议会址是中共在东北的重要会议场所，具有重要的历史价值。", "coordinates": {"latitude": 42.5000, "longitude": 126.8000}}