{"id": 335, "name": "三星堆遗址", "location": "四川省广汉市", "era": "古代", "type": "古文化遗址", "protectionLevel": "全国重点文物保护单位", "description": "三星堆遗址是中国重要的青铜时代文化遗址，出土了大量珍贵文物，具有重要的考古价值。", "coordinates": {"latitude": 30.9667, "longitude": 104.2267}}
{"id": 336, "name": "金沙遗址", "location": "四川省成都市", "era": "古代", "type": "古文化遗址", "protectionLevel": "全国重点文物保护单位", "description": "金沙遗址是古蜀文明的重要遗址，出土了大量金器和青铜器，反映了古代蜀国的繁荣。", "coordinates": {"latitude": 30.6700, "longitude": 104.0670}}
{"id": 337, "name": "成都平原史前城址", "location": "四川省成都市", "era": "史前", "type": "古城遗址", "protectionLevel": "省级文物保护单位", "description": "成都平原史前城址包括宝墩遗址、郫县古城遗址等，是研究古代人类生活的重要遗址。", "coordinates": {"latitude": 30.6500, "longitude": 104.0667}}
{"id": 338, "name": "邛窑遗址", "location": "四川省邛崃市", "era": "古代", "type": "古窑址", "protectionLevel": "省级文物保护单位", "description": "邛窑遗址是古代重要的制陶遗址，出土了大量陶器，反映了古代陶瓷工艺的发展。", "coordinates": {"latitude": 30.4000, "longitude": 103.5000}}
{"id": 339, "name": "泸沽湖摩梭人母系氏族社会遗址", "location": "四川省泸沽湖", "era": "近代", "type": "文化遗址", "protectionLevel": "省级文物保护单位", "description": "泸沽湖摩梭人母系氏族社会遗址是研究摩梭人文化的重要场所，具有独特的社会和文化价值。", "coordinates": {"latitude": 27.7000, "longitude": 100.8000}}
{"id": 340, "name": "罗家坝遗址", "location": "四川省广汉市", "era": "古代", "type": "古文化遗址", "protectionLevel": "省级文物保护单位", "description": "罗家坝遗址是古蜀文化的重要遗址，出土了大量文物，具有重要的考古价值。", "coordinates": {"latitude": 30.9667, "longitude": 104.2267}}
{"id": 341, "name": "城坝遗址", "location": "四川省成都市", "era": "古代", "type": "古城遗址", "protectionLevel": "省级文物保护单位", "description": "城坝遗址是古代重要的城址，反映了古代城市的布局和生活方式。", "coordinates": {"latitude": 30.6500, "longitude": 104.0667}}
{"id": 342, "name": "桂圆桥遗址", "location": "四川省成都市", "era": "古代", "type": "古文化遗址", "protectionLevel": "省级文物保护单位", "description": "桂圆桥遗址是古代重要的文化遗址，出土了大量文物，具有重要的考古价值。", "coordinates": {"latitude": 30.6500, "longitude": 104.0667}}
{"id": 343, "name": "剑南春酒坊遗址", "location": "四川省绵竹市", "era": "古代", "type": "古酒坊遗址", "protectionLevel": "省级文物保护单位", "description": "剑南春酒坊遗址是古代酿酒的重要遗址，反映了古代酿酒工艺的发展。", "coordinates": {"latitude": 31.0000, "longitude": 104.2000}}
{"id": 344, "name": "江口沉银遗址", "location": "四川省泸州市", "era": "明代", "type": "水下遗址", "protectionLevel": "全国重点文物保护单位", "description": "江口沉银遗址是明代重要的水下考古遗址，出土了大量文物，具有重要的历史和考古价值。", "coordinates": {"latitude": 28.9000, "longitude": 105.4000}}
{"id": 345, "name": "塔梁子崖墓群", "location": "四川省广元市", "era": "古代", "type": "古墓遗址", "protectionLevel": "省级文物保护单位", "description": "塔梁子崖墓群是古代重要的墓葬群，出土了大量文物，反映了古代人类的生活和信仰。", "coordinates": {"latitude": 32.3000, "longitude": 105.8000}}
{"id": 346, "name": "孟知祥墓", "location": "四川省广元市", "era": "宋代", "type": "古墓遗址", "protectionLevel": "省级文物保护单位", "description": "孟知祥墓是宋代著名将领的墓葬，具有重要的历史和文化价值。", "coordinates": {"latitude": 32.3000, "longitude": 105.8000}}
{"id": 347, "name": "明蜀王陵", "location": "四川省成都市", "era": "明代", "type": "古墓遗址", "protectionLevel": "全国重点文物保护单位", "description": "明蜀王陵是明代蜀王的陵墓，具有重要的历史和文化价值。", "coordinates": {"latitude": 30.6500, "longitude": 104.0667}}
{"id": 348, "name": "僰人悬棺葬", "location": "四川省成都市", "era": "古代", "type": "古文化遗址", "protectionLevel": "全国重点文物保护单位", "description": "僰人悬棺葬是古代僰人文化的重要遗址，武侯祠是纪念诸葛亮的庙宇，具有重要的历史和文化价值。", "coordinates": {"latitude": 30.6500, "longitude": 104.0667}}
{"id": 349, "name": "杜甫草堂", "location": "四川省成都市", "era": "唐代", "type": "古建筑", "protectionLevel": "全国重点文物保护单位", "description": "杜甫草堂是唐代著名诗人杜甫的故居，具有重要的历史和文化价值。", "coordinates": {"latitude": 30.6500, "longitude": 104.0667}}
{"id": 350, "name": "都江堰", "location": "四川省都江堰市", "era": "秦代", "type": "水利工程", "protectionLevel": "全国重点文物保护单位", "description": "都江堰是中国古代重要的水利工程，至今仍在使用，具有重要的历史和文化价值。", "coordinates": {"latitude": 30.9800, "longitude": 103.6000}}
{"id": 351, "name": "乐山大佛・灵宝塔", "location": "四川省乐山市", "era": "唐代", "type": "古建筑", "protectionLevel": "全国重点文物保护单位", "description": "乐山大佛是世界上最大的石刻佛像，灵宝塔是其重要的附属建筑，具有重要的历史和文化价值。", "coordinates": {"latitude": 29.5500, "longitude": 103.7500}}
{"id": 352, "name": "阆中古城", "location": "四川省阆中市", "era": "明清", "type": "古城遗址", "protectionLevel": "全国重点文物保护单位", "description": "阆中古城是保存较为完整的古代城镇，具有重要的历史和文化价值。", "coordinates": {"latitude": 31.5000, "longitude": 105.9667}}
{"id": 353, "name": "报恩寺", "location": "四川省乐山市", "era": "唐代", "type": "古建筑", "protectionLevel": "省级文物保护单位", "description": "报恩寺是唐代重要的佛教寺庙，具有重要的历史和文化价值。", "coordinates": {"latitude": 29.5500, "longitude": 103.7500}}
{"id": 354, "name": "平武寺", "location": "四川省平武县", "era": "明代", "type": "古建筑", "protectionLevel": "省级文物保护单位", "description": "平武寺是明代重要的佛教寺庙，具有重要的历史和文化价值。", "coordinates": {"latitude": 32.8000, "longitude": 104.2000}}
{"id": 355, "name": "觉苑寺", "location": "四川省成都市", "era": "明代", "type": "古建筑", "protectionLevel": "省级文物保护单位", "description": "觉苑寺是明代重要的佛教寺庙，具有重要的历史和文化价值。", "coordinates": {"latitude": 30.6500, "longitude": 104.0667}}
{"id": 356, "name": "广安白塔", "location": "四川省广安市", "era": "明代", "type": "古建筑", "protectionLevel": "省级文物保护单位", "description": "广安白塔是明代重要的佛教建筑，具有重要的历史和文化价值。", "coordinates": {"latitude": 30.5000, "longitude": 106.6300}}
{"id": 357, "name": "泸州老窖大曲池窖池群", "location": "四川省泸州市", "era": "近代", "type": "酿酒遗址", "protectionLevel": "省级文物保护单位", "description": "泸州老窖大曲池窖池群是中国著名的酿酒遗址，具有重要的历史和文化价值。", "coordinates": {"latitude": 28.9000, "longitude": 105.4000}}
{"id": 358, "name": "报恩塔（泸州）", "location": "四川省泸州市", "era": "唐代", "type": "古建筑", "protectionLevel": "全国重点文物保护单位", "description": "报恩塔是泸州的重要古建筑，大足石刻是世界文化遗产，具有重要的历史和文化价值。", "coordinates": {"latitude": 28.9000, "longitude": 105.4000}}
{"id": 359, "name": "安岳石窟", "location": "四川省安岳县", "era": "唐代", "type": "石窟遗址", "protectionLevel": "省级文物保护单位", "description": "安岳石窟是唐代重要的石窟艺术遗址，具有重要的历史和文化价值。", "coordinates": {"latitude": 30.1000, "longitude": 105.5000}}
{"id": 360, "name": "乐山大佛", "location": "四川省乐山市", "era": "唐代", "type": "石刻遗址", "protectionLevel": "全国重点文物保护单位", "description": "乐山大佛是世界上最大的石刻佛像，具有重要的历史和文化价值。", "coordinates": {"latitude": 29.5500, "longitude": 103.7500}}
{"id": 361, "name": "广元千佛崖", "location": "四川省广元市", "era": "唐代", "type": "石刻遗址", "protectionLevel": "省级文物保护单位", "description": "广元千佛崖是唐代重要的石刻艺术遗址，具有重要的历史和文化价值。", "coordinates": {"latitude": 32.3000, "longitude": 105.8000}}
{"id": 362, "name": "通天岩石窟", "location": "四川省广元市", "era": "唐代", "type": "石窟遗址", "protectionLevel": "省级文物保护单位", "description": "通天岩石窟是唐代重要的石窟艺术遗址，具有重要的历史和文化价值。", "coordinates": {"latitude": 32.3000, "longitude": 105.8000}}
{"id": 363, "name": "大足石刻", "location": "四川省大足县", "era": "唐代", "type": "石刻遗址", "protectionLevel": "世界文化遗产", "description": "大足石刻是中国著名的石刻艺术遗址，包含大量佛教雕刻，具有重要的历史和文化价值。", "coordinates": {"latitude": 29.7000, "longitude": 105.6000}}
{"id": 364, "name": "邓小平故居", "location": "四川省广安市", "era": "近代", "type": "革命遗址", "protectionLevel": "全国重点文物保护单位", "description": "邓小平故居是中国改革开放的重要领导人的出生地，具有重要的历史和文化价值。", "coordinates": {"latitude": 30.5000, "longitude": 106.6300}}
{"id": 365, "name": "陈毅故居", "location": "四川省乐山市", "era": "近代", "type": "革命遗址", "protectionLevel": "省级文物保护单位", "description": "陈毅故居是著名军事家和政治家的出生地，具有重要的历史和文化价值。", "coordinates": {"latitude": 29.5500, "longitude": 103.7500}}
{"id": 366, "name": "郭沫若故居", "location": "四川省乐山市", "era": "近代", "type": "文化遗址", "protectionLevel": "省级文物保护单位", "description": "郭沫若故居是著名作家和历史学家的出生地，具有重要的历史和文化价值。", "coordinates": {"latitude": 29.5500, "longitude": 103.7500}}
{"id": 367, "name": "武侯祠博物馆", "location": "四川省成都市", "era": "古代", "type": "古建筑", "protectionLevel": "全国重点文物保护单位", "description": "武侯祠博物馆是纪念三国时期蜀汉丞相诸葛亮的庙宇，具有重要的历史和文化价值。", "coordinates": {"latitude": 30.6500, "longitude": 104.0667}}
{"id": 368, "name": "泸顺起义旧址", "location": "四川省泸州市", "era": "近代", "type": "革命遗址", "protectionLevel": "省级文物保护单位", "description": "泸顺起义旧址是重要的革命历史遗址，见证了中国革命的历史进程。", "coordinates": {"latitude": 28.9000, "longitude": 105.4000}}
{"id": 369, "name": "红军长征四渡赤水战役遗址", "location": "四川省遵义市", "era": "近代", "type": "革命遗址", "protectionLevel": "省级文物保护单位", "description": "红军长征四渡赤水战役遗址是长征的重要历史遗址，具有重要的历史和文化价值。", "coordinates": {"latitude": 28.2000, "longitude": 105.6000}}
{"id": 370, "name": "黄继光纪念馆", "location": "四川省广元市", "era": "近代", "type": "纪念馆", "protectionLevel": "省级文物保护单位", "description": "黄继光纪念馆是纪念抗美援朝英雄黄继光的场所，具有重要的历史和文化价值。", "coordinates": {"latitude": 32.3000, "longitude": 105.8000}}
{"id": 371, "name": "赵一曼纪念馆", "location": "四川省绵阳市", "era": "近代", "type": "纪念馆", "protectionLevel": "省级文物保护单位", "description": "赵一曼纪念馆是纪念抗日女英雄赵一曼的场所，具有重要的历史和文化价值。", "coordinates": {"latitude": 31.5000, "longitude": 104.5000}}
{"id": 372, "name": "武侯祠", "location": "四川省成都市", "era": "古代", "type": "古建筑", "protectionLevel": "全国重点文物保护单位", "description": "武侯祠是纪念三国时期蜀汉丞相诸葛亮的庙宇，具有重要的历史和文化价值。", "coordinates": {"latitude": 30.6500, "longitude": 104.0667}}
{"id": 373, "name": "朱德故居", "location": "四川省仪陇县", "era": "近代", "type": "革命遗址", "protectionLevel": "全国重点文物保护单位", "description": "朱德故居是中国人民解放军的创始人之一朱德的出生地，具有重要的历史和文化价值。", "coordinates": {"latitude": 31.0000, "longitude": 105.5000}}