{"name": "良渚遗址", "location": "浙江省杭州市", "era": "新石器时代", "type": "古文化遗址", "protectionLevel": "全国重点文物保护单位", "description": "良渚遗址是中国新石器时代晚期的重要文化遗址，展现了良渚文化的繁荣。", "coordinates": {"latitude": 30.3833, "longitude": 119.9833}}
{"name": "跨湖桥遗址", "location": "浙江省杭州市", "era": "新石器时代", "type": "古文化遗址", "protectionLevel": "全国重点文物保护单位", "description": "跨湖桥遗址是长江下游地区新石器时代的重要遗址，出土了大量文物。", "coordinates": {"latitude": 30.1667, "longitude": 120.2500}}
{"name": "茅湾里窑址", "location": "浙江省杭州市", "era": "宋代", "type": "古窑址", "protectionLevel": "省级文物保护单位", "description": "茅湾里窑址是宋代重要的陶瓷生产遗址，具有重要的历史和文化价值。", "coordinates": {"latitude": 30.2000, "longitude": 120.2000}}
{"name": "小古城遗址", "location": "浙江省杭州市", "era": "新石器时代", "type": "古文化遗址", "protectionLevel": "省级文物保护单位", "description": "小古城遗址是新石器时代的重要考古遗址，反映了当时人类的生活方式。", "coordinates": {"latitude": 30.3000, "longitude": 119.9000}}
{"name": "独松关和古驿道", "location": "浙江省杭州市", "era": "古代", "type": "古遗址", "protectionLevel": "省级文物保护单位", "description": "独松关和古驿道是古代重要的交通遗址，具有重要的历史和文化价值。", "coordinates": {"latitude": 30.4000, "longitude": 119.8000}}
{"name": "乌龟洞遗址", "location": "浙江省杭州市", "era": "旧石器时代", "type": "古人类遗址", "protectionLevel": "省级文物保护单位", "description": "乌龟洞遗址是旧石器时代的重要考古遗址，具有重要的考古价值。", "coordinates": {"latitude": 30.2500, "longitude": 120.1000}}
{"name": "钱山漾遗址", "location": "浙江省湖州市", "era": "新石器时代", "type": "古文化遗址", "protectionLevel": "省级文物保护单位", "description": "钱山漾遗址是新石器时代的重要考古遗址，出土了大量文物。", "coordinates": {"latitude": 30.9000, "longitude": 120.1000}}
{"name": "下菰城遗址", "location": "浙江省湖州市", "era": "古代", "type": "古城遗址", "protectionLevel": "省级文物保护单位", "description": "下菰城遗址是古代重要的城市遗址，具有重要的历史和文化价值。", "coordinates": {"latitude": 30.8500, "longitude": 120.1000}}
{"name": "毘山遗址", "location": "浙江省湖州市", "era": "新石器时代", "type": "古文化遗址", "protectionLevel": "省级文物保护单位", "description": "毘山遗址是新石器时代的重要考古遗址，反映了当时人类的生活方式。", "coordinates": {"latitude": 30.9000, "longitude": 120.2000}}
{"name": "南山造像", "location": "浙江省杭州市", "era": "唐代", "type": "石刻", "protectionLevel": "省级文物保护单位", "description": "南山造像是唐代重要的石刻艺术，具有重要的历史和文化价值。", "coordinates": {"latitude": 30.2000, "longitude": 120.1500}}
{"name": "城山古城遗址", "location": "浙江省杭州市", "era": "古代", "type": "古城遗址", "protectionLevel": "省级文物保护单位", "description": "城山古城遗址是古代重要的城市遗址，具有重要的历史和文化价值。", "coordinates": {"latitude": 30.3000, "longitude": 120.2000}}
{"name": "七里亭遗址", "location": "浙江省杭州市", "era": "新石器时代", "type": "古文化遗址", "protectionLevel": "省级文物保护单位", "description": "七里亭遗址是新石器时代的重要考古遗址，出土了大量文物。", "coordinates": {"latitude": 30.2500, "longitude": 120.1000}}
{"name": "安吉古城遗址、龙山越国贵族墓群", "location": "浙江省湖州市", "era": "古代", "type": "古城遗址", "protectionLevel": "省级文物保护单位", "description": "安吉古城遗址和龙山越国贵族墓群是古代重要的历史遗址，具有重要的考古价值。", "coordinates": {"latitude": 30.6000, "longitude": 119.7000}}
{"name": "上马坎遗址", "location": "浙江省杭州市", "era": "新石器时代", "type": "古文化遗址", "protectionLevel": "省级文物保护单位", "description": "上马坎遗址是新石器时代的重要考古遗址，反映了当时人类的生活方式。", "coordinates": {"latitude": 30.2000, "longitude": 120.1000}}
{"name": "马家浜遗址", "location": "浙江省嘉兴市", "era": "新石器时代", "type": "古文化遗址", "protectionLevel": "全国重点文物保护单位", "description": "马家浜遗址是中国新石器时代的重要文化遗址，展现了马家浜文化的繁荣。", "coordinates": {"latitude": 30.7500, "longitude": 120.7500}}
{"name": "南河浜遗址", "location": "浙江省嘉兴市", "era": "新石器时代", "type": "古文化遗址", "protectionLevel": "省级文物保护单位", "description": "南河浜遗址是新石器时代的重要考古遗址，出土了大量文物。", "coordinates": {"latitude": 30.8000, "longitude": 120.8000}}
{"name": "大运河", "location": "浙江省杭州市", "era": "古代", "type": "水利工程", "protectionLevel": "世界文化遗产", "description": "大运河是古代重要的水利工程，具有重要的历史和文化价值。", "coordinates": {"latitude": 30.3000, "longitude": 120.2000}}
{"name": "于谦墓", "location": "浙江省杭州市", "era": "明代", "type": "古墓遗址", "protectionLevel": "省级文物保护单位", "description": "于谦墓是明代著名政治家于谦的墓葬，具有重要的历史价值。", "coordinates": {"latitude": 30.2500, "longitude": 120.1500}}
{"name": "赵孟頫墓", "location": "浙江省湖州市", "era": "元代", "type": "古墓遗址", "protectionLevel": "省级文物保护单位", "description": "赵孟頫墓是元代著名书法家赵孟頫的墓葬，具有重要的历史价值。", "coordinates": {"latitude": 30.9000, "longitude": 120.1000}}
